{
  "type": "FeatureCollection",
  "features": [
    { "type": "Feature", "geometry": { "type": "Point", "coordinates": [-73.9857, 40.7484] }, "properties": { "name": "New York", "country": "US" } },
    { "type": "Feature", "geometry": { "type": "Point", "coordinates": [-0.1276, 51.5074] }, "properties": { "name": "London", "country": "GB" } },
    { "type": "Feature", "geometry": { "type": "Point", "coordinates": [2.3522, 48.8566] }, "properties": { "name": "Paris", "country": "FR" } },
    { "type": "Feature", "geometry": { "type": "Point", "coordinates": [13.4050, 52.5200] }, "properties": { "name": "Berlin", "country": "DE" } },
    { "type": "Feature", "geometry": { "type": "Point", "coordinates": [-43.1729, -22.9068] }, "properties": { "name": "Rio de Janeiro", "country": "BR" } },
    { "type": "Feature", "geometry": { "type": "Point", "coordinates": [-99.1332, 19.4326] }, "properties": { "name": "Ciudad de México", "country": "MX" } },
    { "type": "Feature", "geometry": { "type": "Point", "coordinates": [-58.3816, -34.6037] }, "properties": { "name": "Buenos Aires", "country": "AR" } },
    { "type": "Feature", "geometry": { "type": "Point", "coordinates": [-118.2437, 34.0522] }, "properties": { "name": "Los Angeles", "country": "US" } },
    { "type": "Feature", "geometry": { "type": "Point", "coordinates": [-87.6298, 41.8781] }, "properties": { "name": "Chicago", "country": "US" } },
    { "type": "Feature", "geometry": { "type": "Point", "coordinates": [-79.3832, 43.6532] }, "properties": { "name": "Toronto", "country": "CA" } },
    { "type": "Feature", "geometry": { "type": "Point", "coordinates": [12.4964, 41.9028] }, "properties": { "name": "Roma", "country": "IT" } },
    { "type": "Feature", "geometry": { "type": "Point", "coordinates": [-3.7038, 40.4168] }, "properties": { "name": "Madrid", "country": "ES" } },
    { "type": "Feature", "geometry": { "type": "Point", "coordinates": [-9.1393, 38.7223] }, "properties": { "name": "Lisboa", "country": "PT" } },
    { "type": "Feature", "geometry": { "type": "Point", "coordinates": [23.7275, 37.9838] }, "properties": { "name": "Αθήνα", "country": "GR" } },
    { "type": "Feature", "geometry": { "type": "Point", "coordinates": [18.0686, 59.3293] }, "properties": { "name": "Stockholm", "country": "SE" } },
    { "type": "Feature", "geometry": { "type": "Point", "coordinates": [24.9384, 60.1699] }, "properties": { "name": "Helsinki", "country": "FI" } },
    { "type": "Feature", "geometry": { "type": "Point", "coordinates": [14.4378, 50.0755] }, "properties": { "name": "Praha", "country": "CZ" } },
    { "type": "Feature", "geometry": { "type": "Point", "coordinates": [16.3738, 48.2082] }, "properties": { "name": "Wien", "country": "AT" } },
    { "type": "Feature", "geometry": { "type": "Point", "coordinates": [4.3517, 50.8503] }, "properties": { "name": "Bruxelles", "country": "BE" } },
    { "type": "Feature", "geometry": { "type": "Point", "coordinates": [4.9041, 52.3676] }, "properties": { "name": "Amsterdam", "country": "NL" } },
    { "type": "Feature", "geometry": { "type": "Point", "coordinates": [139.6917, 35.6895] }, "properties": { "name": "東京", "country": "JP" } },
    { "type": "Feature", "geometry": { "type": "Point", "coordinates": [135.5023, 34.6937] }, "properties": { "name": "大阪", "country": "JP" } },
    { "type": "Feature", "geometry": { "type": "Point", "coordinates": [136.9066, 35.1815] }, "properties": { "name": "名古屋", "country": "JP" } },
    { "type": "Feature", "geometry": { "type": "Point", "coordinates": [139.6380, 35.4437] }, "properties": { "name": "横浜", "country": "JP" } },
    { "type": "Feature", "geometry": { "type": "Point", "coordinates": [141.3469, 43.0621] }, "properties": { "name": "札幌", "country": "JP" } },
    { "type": "Feature", "geometry": { "type": "Point", "coordinates": [130.4017, 33.5904] }, "properties": { "name": "福岡", "country": "JP" } },
    { "type": "Feature", "geometry": { "type": "Point", "coordinates": [135.7681, 35.0116] }, "properties": { "name": "京都", "country": "JP" } },
    { "type": "Feature", "geometry": { "type": "Point", "coordinates": [135.1955, 34.6901] }, "properties": { "name": "神戸", "country": "JP" } },
    { "type": "Feature", "geometry": { "type": "Point", "coordinates": [116.4074, 39.9042] }, "properties": { "name": "北京", "country": "CN" } },
    { "type": "Feature", "geometry": { "type": "Point", "coordinates": [121.4737, 31.2304] }, "properties": { "name": "上海", "country": "CN" } },
    { "type": "Feature", "geometry": { "type": "Point", "coordinates": [113.2644, 23.1291] }, "properties": { "name": "广州", "country": "CN" } },
    { "type": "Feature", "geometry": { "type": "Point", "coordinates": [114.0579, 22.5431] }, "properties": { "name": "深圳", "country": "CN" } },
    { "type": "Feature", "geometry": { "type": "Point", "coordinates": [104.0668, 30.5728] }, "properties": { "name": "成都", "country": "CN" } },
    { "type": "Feature", "geometry": { "type": "Point", "coordinates": [114.3055, 30.5928] }, "properties": { "name": "武汉", "country": "CN" } },
    { "type": "Feature", "geometry": { "type": "Point", "coordinates": [120.1551, 30.2741] }, "properties": { "name": "杭州", "country": "CN" } },
    { "type": "Feature", "geometry": { "type": "Point", "coordinates": [118.7969, 32.0603] }, "properties": { "name": "南京", "country": "CN" } },
    { "type": "Feature", "geometry": { "type": "Point", "coordinates": [106.5516, 29.5630] }, "properties": { "name": "重庆", "country": "CN" } },
    { "type": "Feature", "geometry": { "type": "Point", "coordinates": [108.9402, 34.3416] }, "properties": { "name": "西安", "country": "CN" } },
    { "type": "Feature", "geometry": { "type": "Point", "coordinates": [126.9780, 37.5665] }, "properties": { "name": "서울", "country": "KR" } },
    { "type": "Feature", "geometry": { "type": "Point", "coordinates": [129.0756, 35.1796] }, "properties": { "name": "부산", "country": "KR" } },
    { "type": "Feature", "geometry": { "type": "Point", "coordinates": [126.7052, 37.4563] }, "properties": { "name": "인천", "country": "KR" } },
    { "type": "Feature", "geometry": { "type": "Point", "coordinates": [128.6014, 35.8714] }, "properties": { "name": "대구", "country": "KR" } },
    { "type": "Feature", "geometry": { "type": "Point", "coordinates": [127.3845, 36.3504] }, "properties": { "name": "대전", "country": "KR" } },
    { "type": "Feature", "geometry": { "type": "Point", "coordinates": [126.8526, 35.1595] }, "properties": { "name": "광주", "country": "KR" } },
    { "type": "Feature", "geometry": { "type": "Point", "coordinates": [129.3114, 35.5384] }, "properties": { "name": "울산", "country": "KR" } },
    { "type": "Feature", "geometry": { "type": "Point", "coordinates": [37.6173, 55.7558] }, "properties": { "name": "Москва", "country": "RU" } },
    { "type": "Feature", "geometry": { "type": "Point", "coordinates": [30.3351, 59.9343] }, "properties": { "name": "Санкт-Петербург", "country": "RU" } },
    { "type": "Feature", "geometry": { "type": "Point", "coordinates": [30.5234, 50.4501] }, "properties": { "name": "Київ", "country": "UA" } },
    { "type": "Feature", "geometry": { "type": "Point", "coordinates": [31.2357, 30.0444] }, "properties": { "name": "القاهرة", "country": "EG" } },
    { "type": "Feature", "geometry": { "type": "Point", "coordinates": [46.6753, 24.7136] }, "properties": { "name": "الرياض", "country": "SA" } },
    { "type": "Feature", "geometry": { "type": "Point", "coordinates": [55.2708, 25.2048] }, "properties": { "name": "دبي", "country": "AE" } },
    { "type": "Feature", "geometry": { "type": "Point", "coordinates": [44.3661, 33.3152] }, "properties": { "name": "بغداد", "country": "IQ" } },
    { "type": "Feature", "geometry": { "type": "Point", "coordinates": [-7.5898, 33.5731] }, "properties": { "name": "الدار البيضاء", "country": "MA" } },
    { "type": "Feature", "geometry": { "type": "Point", "coordinates": [72.8777, 19.0760] }, "properties": { "name": "मुंबई", "country": "IN" } },
    { "type": "Feature", "geometry": { "type": "Point", "coordinates": [77.1025, 28.7041] }, "properties": { "name": "नई दिल्ली", "country": "IN" } },
    { "type": "Feature", "geometry": { "type": "Point", "coordinates": [100.5018, 13.7563] }, "properties": { "name": "กรุงเทพ", "country": "TH" } },
    { "type": "Feature", "geometry": { "type": "Point", "coordinates": [106.6297, -6.1751] }, "properties": { "name": "Jakarta", "country": "ID" } },
    { "type": "Feature", "geometry": { "type": "Point", "coordinates": [106.6602, 10.7769] }, "properties": { "name": "Ho Chi Minh", "country": "VN" } },
    { "type": "Feature", "geometry": { "type": "Point", "coordinates": [101.6869, 3.1390] }, "properties": { "name": "Kuala Lumpur", "country": "MY" } },
    { "type": "Feature", "geometry": { "type": "Point", "coordinates": [103.8198, 1.3521] }, "properties": { "name": "Singapore", "country": "SG" } },
    { "type": "Feature", "geometry": { "type": "Point", "coordinates": [120.9842, 14.5995] }, "properties": { "name": "Manila", "country": "PH" } },
    { "type": "Feature", "geometry": { "type": "Point", "coordinates": [151.2093, -33.8688] }, "properties": { "name": "Sydney", "country": "AU" } },
    { "type": "Feature", "geometry": { "type": "Point", "coordinates": [174.7633, -36.8485] }, "properties": { "name": "Auckland", "country": "NZ" } },
    { "type": "Feature", "geometry": { "type": "Point", "coordinates": [28.9784, 41.0082] }, "properties": { "name": "İstanbul", "country": "TR" } },
    { "type": "Feature", "geometry": { "type": "Point", "coordinates": [36.8219, -1.2921] }, "properties": { "name": "Nairobi", "country": "KE" } },
    { "type": "Feature", "geometry": { "type": "Point", "coordinates": [3.3792, 6.5244] }, "properties": { "name": "Lagos", "country": "NG" } },
    { "type": "Feature", "geometry": { "type": "Point", "coordinates": [18.4241, -33.9249] }, "properties": { "name": "Cape Town", "country": "ZA" } },
    { "type": "Feature", "geometry": { "type": "Point", "coordinates": [28.0473, -26.2041] }, "properties": { "name": "Johannesburg", "country": "ZA" } },
    { "type": "Feature", "geometry": { "type": "Point", "coordinates": [-46.6333, -23.5505] }, "properties": { "name": "São Paulo", "country": "BR" } },
    { "type": "Feature", "geometry": { "type": "Point", "coordinates": [-70.6693, -33.4489] }, "properties": { "name": "Santiago", "country": "CL" } },
    { "type": "Feature", "geometry": { "type": "Point", "coordinates": [-77.0428, -12.0464] }, "properties": { "name": "Lima", "country": "PE" } },
    { "type": "Feature", "geometry": { "type": "Point", "coordinates": [-74.0721, 4.7110] }, "properties": { "name": "Bogotá", "country": "CO" } },
    { "type": "Feature", "geometry": { "type": "Point", "coordinates": [114.1694, 22.3193] }, "properties": { "name": "Hong Kong", "country": "HK" } },
    { "type": "Feature", "geometry": { "type": "Point", "coordinates": [121.5654, 25.0330] }, "properties": { "name": "Taipei", "country": "TW" } },

    { "type": "Feature", "geometry": { "type": "Point", "coordinates": [-122.4194, 37.7749] }, "properties": { "name": "San Francisco", "country": "US" } },
    { "type": "Feature", "geometry": { "type": "Point", "coordinates": [-95.3698, 29.7604] }, "properties": { "name": "Houston", "country": "US" } },
    { "type": "Feature", "geometry": { "type": "Point", "coordinates": [-80.1918, 25.7617] }, "properties": { "name": "Miami", "country": "US" } },
    { "type": "Feature", "geometry": { "type": "Point", "coordinates": [-122.3321, 47.6062] }, "properties": { "name": "Seattle", "country": "US" } },
    { "type": "Feature", "geometry": { "type": "Point", "coordinates": [-77.0369, 38.9072] }, "properties": { "name": "Washington", "country": "US" } },
    { "type": "Feature", "geometry": { "type": "Point", "coordinates": [-73.5673, 45.5017] }, "properties": { "name": "Montréal", "country": "CA" } },
    { "type": "Feature", "geometry": { "type": "Point", "coordinates": [-123.1216, 49.2827] }, "properties": { "name": "Vancouver", "country": "CA" } },
    { "type": "Feature", "geometry": { "type": "Point", "coordinates": [-82.3666, 23.1136] }, "properties": { "name": "La Habana", "country": "CU" } },
    { "type": "Feature", "geometry": { "type": "Point", "coordinates": [-79.5199, 8.9824] }, "properties": { "name": "Panamá", "country": "PA" } },
    { "type": "Feature", "geometry": { "type": "Point", "coordinates": [-66.9036, 10.4806] }, "properties": { "name": "Caracas", "country": "VE" } },
    { "type": "Feature", "geometry": { "type": "Point", "coordinates": [-78.4678, -0.1807] }, "properties": { "name": "Quito", "country": "EC" } },
    { "type": "Feature", "geometry": { "type": "Point", "coordinates": [-56.1645, -34.9011] }, "properties": { "name": "Montevideo", "country": "UY" } },

    { "type": "Feature", "geometry": { "type": "Point", "coordinates": [9.1829, 45.4642] }, "properties": { "name": "Milano", "country": "IT" } },
    { "type": "Feature", "geometry": { "type": "Point", "coordinates": [2.1734, 41.3851] }, "properties": { "name": "Barcelona", "country": "ES" } },
    { "type": "Feature", "geometry": { "type": "Point", "coordinates": [11.5820, 48.1351] }, "properties": { "name": "München", "country": "DE" } },
    { "type": "Feature", "geometry": { "type": "Point", "coordinates": [9.9937, 53.5511] }, "properties": { "name": "Hamburg", "country": "DE" } },
    { "type": "Feature", "geometry": { "type": "Point", "coordinates": [8.5417, 47.3769] }, "properties": { "name": "Zürich", "country": "CH" } },
    { "type": "Feature", "geometry": { "type": "Point", "coordinates": [21.0122, 52.2297] }, "properties": { "name": "Warszawa", "country": "PL" } },
    { "type": "Feature", "geometry": { "type": "Point", "coordinates": [19.0402, 47.4979] }, "properties": { "name": "Budapest", "country": "HU" } },
    { "type": "Feature", "geometry": { "type": "Point", "coordinates": [23.3219, 42.6977] }, "properties": { "name": "София", "country": "BG" } },
    { "type": "Feature", "geometry": { "type": "Point", "coordinates": [26.1025, 44.4268] }, "properties": { "name": "București", "country": "RO" } },
    { "type": "Feature", "geometry": { "type": "Point", "coordinates": [20.4489, 44.7866] }, "properties": { "name": "Beograd", "country": "RS" } },
    { "type": "Feature", "geometry": { "type": "Point", "coordinates": [15.9819, 45.8150] }, "properties": { "name": "Zagreb", "country": "HR" } },
    { "type": "Feature", "geometry": { "type": "Point", "coordinates": [10.7522, 59.9139] }, "properties": { "name": "Oslo", "country": "NO" } },
    { "type": "Feature", "geometry": { "type": "Point", "coordinates": [12.5683, 55.6761] }, "properties": { "name": "København", "country": "DK" } },
    { "type": "Feature", "geometry": { "type": "Point", "coordinates": [-6.2603, 53.3498] }, "properties": { "name": "Dublin", "country": "IE" } },
    { "type": "Feature", "geometry": { "type": "Point", "coordinates": [-21.8174, 64.1466] }, "properties": { "name": "Reykjavík", "country": "IS" } },

    { "type": "Feature", "geometry": { "type": "Point", "coordinates": [51.3890, 35.6892] }, "properties": { "name": "طهران", "country": "IR" } },
    { "type": "Feature", "geometry": { "type": "Point", "coordinates": [35.5018, 33.8938] }, "properties": { "name": "بيروت", "country": "LB" } },
    { "type": "Feature", "geometry": { "type": "Point", "coordinates": [35.9106, 31.9454] }, "properties": { "name": "عمّان", "country": "JO" } },
    { "type": "Feature", "geometry": { "type": "Point", "coordinates": [47.9774, 29.3759] }, "properties": { "name": "الكويت", "country": "KW" } },
    { "type": "Feature", "geometry": { "type": "Point", "coordinates": [51.5310, 25.2854] }, "properties": { "name": "الدوحة", "country": "QA" } },

    { "type": "Feature", "geometry": { "type": "Point", "coordinates": [77.5946, 12.9716] }, "properties": { "name": "ಬೆಂಗಳೂರು", "country": "IN" } },
    { "type": "Feature", "geometry": { "type": "Point", "coordinates": [88.3639, 22.5726] }, "properties": { "name": "কলকাতা", "country": "IN" } },
    { "type": "Feature", "geometry": { "type": "Point", "coordinates": [80.2707, 13.0827] }, "properties": { "name": "சென்னை", "country": "IN" } },
    { "type": "Feature", "geometry": { "type": "Point", "coordinates": [78.4867, 17.3850] }, "properties": { "name": "హైదరాబాద్", "country": "IN" } },
    { "type": "Feature", "geometry": { "type": "Point", "coordinates": [90.4125, 23.8103] }, "properties": { "name": "ঢাকা", "country": "BD" } },
    { "type": "Feature", "geometry": { "type": "Point", "coordinates": [85.3240, 27.7172] }, "properties": { "name": "काठमाडौँ", "country": "NP" } },
    { "type": "Feature", "geometry": { "type": "Point", "coordinates": [79.8612, 6.9271] }, "properties": { "name": "Colombo", "country": "LK" } },
    { "type": "Feature", "geometry": { "type": "Point", "coordinates": [67.0011, 24.8607] }, "properties": { "name": "کراچی", "country": "PK" } },
    { "type": "Feature", "geometry": { "type": "Point", "coordinates": [74.3587, 31.5204] }, "properties": { "name": "لاہور", "country": "PK" } },
    { "type": "Feature", "geometry": { "type": "Point", "coordinates": [69.2401, 41.2995] }, "properties": { "name": "Toshkent", "country": "UZ" } },
    { "type": "Feature", "geometry": { "type": "Point", "coordinates": [76.9286, 43.2220] }, "properties": { "name": "Алматы", "country": "KZ" } },

    { "type": "Feature", "geometry": { "type": "Point", "coordinates": [105.8342, 21.0278] }, "properties": { "name": "Hà Nội", "country": "VN" } },
    { "type": "Feature", "geometry": { "type": "Point", "coordinates": [104.9160, 11.5564] }, "properties": { "name": "Phnom Penh", "country": "KH" } },
    { "type": "Feature", "geometry": { "type": "Point", "coordinates": [96.1951, 16.8661] }, "properties": { "name": "ရန်ကုန်", "country": "MM" } },
    { "type": "Feature", "geometry": { "type": "Point", "coordinates": [102.6331, 17.9757] }, "properties": { "name": "ວຽງຈັນ", "country": "LA" } },
    { "type": "Feature", "geometry": { "type": "Point", "coordinates": [112.7508, -7.2575] }, "properties": { "name": "Surabaya", "country": "ID" } },

    { "type": "Feature", "geometry": { "type": "Point", "coordinates": [117.1901, 39.1252] }, "properties": { "name": "天津", "country": "CN" } },
    { "type": "Feature", "geometry": { "type": "Point", "coordinates": [126.6500, 45.7500] }, "properties": { "name": "哈尔滨", "country": "CN" } },
    { "type": "Feature", "geometry": { "type": "Point", "coordinates": [87.6168, 43.8256] }, "properties": { "name": "乌鲁木齐", "country": "CN" } },
    { "type": "Feature", "geometry": { "type": "Point", "coordinates": [91.1710, 29.6500] }, "properties": { "name": "拉萨", "country": "CN" } },

    { "type": "Feature", "geometry": { "type": "Point", "coordinates": [132.4553, 34.3853] }, "properties": { "name": "広島", "country": "JP" } },
    { "type": "Feature", "geometry": { "type": "Point", "coordinates": [140.8694, 38.2682] }, "properties": { "name": "仙台", "country": "JP" } },

    { "type": "Feature", "geometry": { "type": "Point", "coordinates": [144.9631, -37.8136] }, "properties": { "name": "Melbourne", "country": "AU" } },
    { "type": "Feature", "geometry": { "type": "Point", "coordinates": [153.0251, -27.4698] }, "properties": { "name": "Brisbane", "country": "AU" } },
    { "type": "Feature", "geometry": { "type": "Point", "coordinates": [115.8605, -31.9505] }, "properties": { "name": "Perth", "country": "AU" } },
    { "type": "Feature", "geometry": { "type": "Point", "coordinates": [176.2378, -38.1446] }, "properties": { "name": "Wellington", "country": "NZ" } },

    { "type": "Feature", "geometry": { "type": "Point", "coordinates": [38.7468, 9.0245] }, "properties": { "name": "Addis Ababa", "country": "ET" } },
    { "type": "Feature", "geometry": { "type": "Point", "coordinates": [32.5599, 0.3476] }, "properties": { "name": "Kampala", "country": "UG" } },
    { "type": "Feature", "geometry": { "type": "Point", "coordinates": [39.2695, -6.7924] }, "properties": { "name": "Dar es Salaam", "country": "TZ" } },
    { "type": "Feature", "geometry": { "type": "Point", "coordinates": [15.2663, -4.4419] }, "properties": { "name": "Kinshasa", "country": "CD" } },
    { "type": "Feature", "geometry": { "type": "Point", "coordinates": [-1.0232, 7.9465] }, "properties": { "name": "Accra", "country": "GH" } },
    { "type": "Feature", "geometry": { "type": "Point", "coordinates": [-17.4440, 14.6928] }, "properties": { "name": "Dakar", "country": "SN" } },
    { "type": "Feature", "geometry": { "type": "Point", "coordinates": [3.0588, 36.7538] }, "properties": { "name": "الجزائر", "country": "DZ" } },
    { "type": "Feature", "geometry": { "type": "Point", "coordinates": [10.1658, 36.8065] }, "properties": { "name": "تونس", "country": "TN" } },
    { "type": "Feature", "geometry": { "type": "Point", "coordinates": [32.8597, 39.9334] }, "properties": { "name": "Ankara", "country": "TR" } },

    { "type": "Feature", "geometry": { "type": "Point", "coordinates": [44.8271, 41.7151] }, "properties": { "name": "თბილისი", "country": "GE" } },
    { "type": "Feature", "geometry": { "type": "Point", "coordinates": [44.5136, 40.1872] }, "properties": { "name": "Երևան", "country": "AM" } },
    { "type": "Feature", "geometry": { "type": "Point", "coordinates": [49.8671, 40.4093] }, "properties": { "name": "Bakı", "country": "AZ" } },

    { "type": "Feature", "geometry": { "type": "Point", "coordinates": [82.9344, 55.0084] }, "properties": { "name": "Новосибирск", "country": "RU" } },
    { "type": "Feature", "geometry": { "type": "Point", "coordinates": [60.5972, 56.8389] }, "properties": { "name": "Екатеринбург", "country": "RU" } },
    { "type": "Feature", "geometry": { "type": "Point", "coordinates": [131.8869, 43.1155] }, "properties": { "name": "Владивосток", "country": "RU" } },

    { "type": "Feature", "geometry": { "type": "Point", "coordinates": [-157.8583, 21.3069] }, "properties": { "name": "Honolulu", "country": "US" } },
    { "type": "Feature", "geometry": { "type": "Point", "coordinates": [-149.9003, 61.2181] }, "properties": { "name": "Anchorage", "country": "US" } }
  ]
}
